,Name,Latitude,Longitude,Category
0,National Centre for the Performing Arts (NCPA),18.92563130239702,72.81986117362976,Performing Arts
1,18.99 Latitude,19.00619,72.82819492,Concert Hall
2,Chitrakoot Grounds,19.132613236499147,72.83189337220684,Concert Hall
3,"aditya birla hall, babulnath",19.089628219604492,72.85173797607422,Concert Hall
4,Bharatratna Dr. M. S. Subbulakshmi Auditorium,19.033820189190827,72.85530093498174,Concert Hall
5,Tabla Class,19.009535855475317,72.84406189337916,Concert Hall
6,Oberoi splendor-multipurpose hall,19.14020143294941,72.86547793415788,Concert Hall
7,Somaiya Audi,19.04757,72.871366,Concert Hall
8,Maheshwari Bhavan,19.080101013183594,72.98197937011719,Concert Hall
9,Amphitheatre,19.213542834761483,72.9852944612503,Concert Hall
10,Shubham Kanoti Mandal,19.191666977128587,72.97345218510186,Concert Hall
11,Majestic Hall,18.924674365750526,72.83217227625087,Concert Hall
12,thakur welfare hall,19.212681182433343,72.86723175022692,Concert Hall
13,The Console,19.052802186646566,72.8256905968986,Concert Hall
14,Kora Kendra Grounds,19.219862,72.850586,Concert Hall
15,Seva Niketan Hall,18.968237823916596,72.83335893515725,Concert Hall
16,Maa Kripa Banquet Hall,19.18731689453125,72.96157836914062,Concert Hall
17,"JRM Grounds, Vile Parle (W)",19.103831,72.837361,Concert Hall
18,Gujarat Bhavan,19.07974761331727,73.00251379282783,Concert Hall
19,Cama Hall,18.92736371432339,72.83373397937875,Concert Hall
20,Navin Bhai Thakkar Hall,19.095664885723025,72.84629589621613,Concert Hall
21,Heravati Hall,19.08250623674751,72.83627849493628,Concert Hall
22,Agri Koli Bhavan,19.031794955205484,73.00786256790161,Concert Hall
23,Yashwant Natya Mandir,19.02688175674481,72.843403326767,Concert Hall
24,Ravindra Natya Mandir,19.01494832411588,72.83019175547305,Theater
25,Prithvi hall,19.001861608682972,73.1171276655734,Concert Hall
26,Tarabai Hall,18.945884704589844,72.82170867919922,Concert Hall
27,Ram wadi,19.02591537897619,72.85290662423697,Concert Hall
28,Bramhan Seva Sangh Hall,19.196497693871297,72.95964090018865,Concert Hall
29,Chatwani Banquets,19.116401983705185,72.85045459477928,Concert Hall
30,Trident,19.06680832992521,72.86746828365813,Hotel
31,JW Marriott Mumbai Juhu,19.1020372,72.8261813,Hotel
32,ITC Grand Central,18.998468844862458,72.83843278884888,Hotel
33,Taj Lands End,19.043677132890416,72.81926228959885,Hotel
34,Radisson Blu Mumbai International Airport,19.11022220381635,72.87862210283278,Hotel
35,Courtyard Mumbai International Airport,19.1141672,72.8641313,Hotel
36,Hilton,19.104275947619968,72.87089179498523,Hotel
37,The St. Regis Mumbai,18.99457,72.824404,Hotel
38,ITC Maratha,19.10402335643933,72.86963760852814,Hotel
39,Vivanta by Taj - President,18.91441306149257,72.82102773714136,Hotel
40,Grand Hyatt,19.076832,72.85127,Hotel
41,Hotel Sea Princess,19.09313359786729,72.82745481573147,Hotel
42,Executive Enclave Hotel,19.066799422202674,72.83024281114886,Hotel
43,Hotel Fountain,19.284879417374295,72.90427468616842,Resort
44,Hotel Tip Top Plaza,19.186152335328153,72.95962316545427,Hotel
45,Trident,18.92787752948028,72.82071104273936,Hotel
46,Hyatt Regency,19.103543148622148,72.8714396060434,Hotel
47,Regenza Hotel Tunga,19.06706019411115,72.9991508247606,Hotel
48,Hotel Suba International,19.10614013007769,72.86021774649141,Hotel
49,Mirage Hotel Mumbai,19.108866166428427,72.87733733862314,Hotel
50,Hotel Sahara,19.195892856719176,72.82079750578906,Hotel
51,Yogi Executive Hotel Navi Mumbai,19.070790386231607,73.00933149094085,Hotel
52,Hotel Residency Park,18.953255,72.83532,Hotel
53,Saimaa Hotel,19.189548604679224,72.96260325805062,Hotel
54,The Byke,19.263131,72.968687,Hotel
55,Comfort Inn Heritage Hotel Mumbai,18.9758121092119,72.83410288482655,Hotel
56,Juhu Residency Boutique Hotel,19.101247639596156,72.82733861974947,Hotel
57,YWCA -  International Guest House,18.92563222066865,72.83074330299586,Hostel
58,The UniContinental,19.070340931213053,72.83920955928849,Hotel
59,Hotel Jewel of Chembur,19.061669790956667,72.89957121902685,Hotel
60,Utopeia Communicationz,19.072940988046113,72.86934900466055,Advertising Agency
61,Lotus Corporate Park,19.145572009287918,72.85340789664465,Advertising Agency
62,PostBox Communications,19.18874573193179,72.84597967127559,Advertising Agency
63,igenero,19.172014,72.855048,Advertising Agency
64,One Take Entertainment,19.135671615600586,72.82359313964844,Advertising Agency
65,Aino Design,19.132052763759155,72.81484834451479,Advertising Agency
66,Only About Dreams,19.200708938016657,72.84917166211187,Advertising Agency
67,Urja Interactive,19.113968434329706,72.89387466019996,Advertising Agency
68,Stellar Ants,19.01530760121658,73.04138959261182,Advertising Agency
69,Labradog,19.131501,72.855569,Advertising Agency
70,Ripple Media,18.996984,72.82549,Advertising Agency
71,Brand Whiz,18.990933137648287,72.83944035025908,Advertising Agency
72,Comet Studio,19.075386471067777,72.90885229366378,Advertising Agency
73,Touchstone Advertising,18.91846606843907,72.82742500305176,Office
74,Tempus,19.12892960347528,72.84890273057005,Advertising Agency
75,The Womb,19.11070805365344,72.85442975477018,Advertising Agency
76,Design Arico,19.06578826904297,72.8252944946289,Advertising Agency
77,Schbang Solutions,19.00340852193742,72.82808303602609,Advertising Agency
78,Infectious,18.98378276919344,72.82423652816775,Advertising Agency
79,Team Pumpkin,19.118526,72.890227,Advertising Agency
80,Famous Innovations,18.99620778887188,72.84048055541649,Advertising Agency
81,Lotus travels,19.309297561645508,72.87001037597656,Travel Agency
82,Diamond Roadlines,19.018372366321117,73.11390613501563,Building
83,Rto Office,19.085345947153105,73.00968638272576,Travel Agency
84,zest tours and travels,19.089178,72.836256,Travel Agency
85,Thomas Cook,19.070533752441406,72.9903335571289,Travel Agency
86,Radiant,19.114127,72.859169,Travel Agency
87,Western Union,19.20698845481703,72.83701703415969,Travel Agency
88,Riya Holidays,18.93986438938499,72.83842486835238,Travel Agency
89,Paryatan World,19.166699595032682,72.85059883249164,Travel Agency
90,Travel Smith,19.220597875049634,72.85440090768981,Travel Agency
91,Arzoo.com,19.12099663560987,72.87060088752615,Travel Agency
92,Dragon fly,19.115553396825398,72.84437980952382,Travel Agency
93,Archer Tours Pvt Ltd,19.0975,72.8493,Travel Agency
94,Flight Shop,19.01557859275498,72.82983926128344,Travel Agency
95,Triveni Tours & Travels,19.21629147057797,72.84515235704484,Travel Agency
96,Elysium Resorts Pvt Ltd,18.95143760466426,72.836624685476,Travel Agency
97,FCM Travel Solutions,19.113509,72.880042,Travel Agency
